[
  { "icao": "YUL", "iata": "YUL", "name": "Montréal–Trudeau Intl", "city": "Montreal", "country": "Canada", "lat": 45.4706, "lon": -73.7408 },
  { "icao": "YYZ", "iata": "YYZ", "name": "Toronto Pearson Intl", "city": "Toronto", "country": "Canada", "lat": 43.6777, "lon": -79.6248 },
  { "icao": "JFK", "iata": "JFK", "name": "John F. Kennedy Intl", "city": "New York", "country": "USA", "lat": 40.6413, "lon": -73.7781 },
  { "icao": "LAX", "iata": "LAX", "name": "Los Angeles Intl", "city": "Los Angeles", "country": "USA", "lat": 33.9416, "lon": -118.4085 },
  { "icao": "ORD", "iata": "ORD", "name": "Chicago O'Hare Intl", "city": "Chicago", "country": "USA", "lat": 41.9742, "lon": -87.9073 },
  { "icao": "ATL", "iata": "ATL", "name": "Hartsfield–Jackson Atlanta Intl", "city": "Atlanta", "country": "USA", "lat": 33.6407, "lon": -84.4277 },
  { "icao": "DFW", "iata": "DFW", "name": "Dallas/Fort Worth Intl", "city": "Dallas", "country": "USA", "lat": 32.8998, "lon": -97.0403 },
  { "icao": "MIA", "iata": "MIA", "name": "Miami Intl", "city": "Miami", "country": "USA", "lat": 25.7959, "lon": -80.2870 },
  { "icao": "SEA", "iata": "SEA", "name": "Seattle–Tacoma Intl", "city": "Seattle", "country": "USA", "lat": 47.4502, "lon": -122.3088 },
  { "icao": "SFO", "iata": "SFO", "name": "San Francisco Intl", "city": "San Francisco", "country": "USA", "lat": 37.6213, "lon": -122.3790 },
  { "icao": "LHR", "iata": "LHR", "name": "London Heathrow", "city": "London", "country": "UK", "lat": 51.4700, "lon": -0.4543 },
  { "icao": "CDG", "iata": "CDG", "name": "Paris Charles de Gaulle", "city": "Paris", "country": "France", "lat": 49.0097, "lon": 2.5479 },
  { "icao": "FRA", "iata": "FRA", "name": "Frankfurt Intl", "city": "Frankfurt", "country": "Germany", "lat": 50.0379, "lon": 8.5622 },
  { "icao": "AMS", "iata": "AMS", "name": "Amsterdam Schiphol", "city": "Amsterdam", "country": "Netherlands", "lat": 52.3105, "lon": 4.7683 },
  { "icao": "MAD", "iata": "MAD", "name": "Madrid Barajas", "city": "Madrid", "country": "Spain", "lat": 40.4983, "lon": -3.5676 },
  { "icao": "DXB", "iata": "DXB", "name": "Dubai Intl", "city": "Dubai", "country": "UAE", "lat": 25.2532, "lon": 55.3657 },
  { "icao": "DOH", "iata": "DOH", "name": "Hamad Intl", "city": "Doha", "country": "Qatar", "lat": 25.2731, "lon": 51.6081 },
  { "icao": "DEL", "iata": "DEL", "name": "Indira Gandhi Intl", "city": "New Delhi", "country": "India", "lat": 28.5562, "lon": 77.1000 },
  { "icao": "SIN", "iata": "SIN", "name": "Singapore Changi", "city": "Singapore", "country": "Singapore", "lat": 1.3644, "lon": 103.9915 },
  { "icao": "HKG", "iata": "HKG", "name": "Hong Kong Intl", "city": "Hong Kong", "country": "China", "lat": 22.3080, "lon": 113.9185 },
  { "icao": "PEK", "iata": "PEK", "name": "Beijing Capital Intl", "city": "Beijing", "country": "China", "lat": 40.0799, "lon": 116.6031 },
  { "icao": "ICN", "iata": "ICN", "name": "Incheon Intl", "city": "Seoul", "country": "South Korea", "lat": 37.4602, "lon": 126.4407 },
  { "icao": "NRT", "iata": "NRT", "name": "Narita Intl", "city": "Tokyo", "country": "Japan", "lat": 35.7719, "lon": 140.3929 },
  { "icao": "SYD", "iata": "SYD", "name": "Sydney Kingsford Smith", "city": "Sydney", "country": "Australia", "lat": -33.9399, "lon": 151.1753 },
  { "icao": "MEL", "iata": "MEL", "name": "Melbourne Intl", "city": "Melbourne", "country": "Australia", "lat": -37.6690, "lon": 144.8410 },
  { "icao": "GRU", "iata": "GRU", "name": "São Paulo–Guarulhos", "city": "São Paulo", "country": "Brazil", "lat": -23.4356, "lon": -46.4731 },
  { "icao": "EZE", "iata": "EZE", "name": "Buenos Aires Ezeiza", "city": "Buenos Aires", "country": "Argentina", "lat": -34.8222, "lon": -58.5358 },
  { "icao": "CPT", "iata": "CPT", "name": "Cape Town Intl", "city": "Cape Town", "country": "South Africa", "lat": -33.9690, "lon": 18.5972 },
  { "icao": "JNB", "iata": "JNB", "name": "O.R. Tambo Intl", "city": "Johannesburg", "country": "South Africa", "lat": -26.1337, "lon": 28.2420 },
  { "icao": "CAI", "iata": "CAI", "name": "Cairo Intl", "city": "Cairo", "country": "Egypt", "lat": 30.1219, "lon": 31.4056 },
  { "icao": "IST", "iata": "IST", "name": "Istanbul Airport", "city": "Istanbul", "country": "Turkey", "lat": 41.2753, "lon": 28.7519 },
  { "icao": "ZRH", "iata": "ZRH", "name": "Zurich Intl", "city": "Zurich", "country": "Switzerland", "lat": 47.4647, "lon": 8.5492 },
  { "icao": "VIE", "iata": "VIE", "name": "Vienna Intl", "city": "Vienna", "country": "Austria", "lat": 48.1103, "lon": 16.5697 },
  { "icao": "BKK", "iata": "BKK", "name": "Bangkok Suvarnabhumi", "city": "Bangkok", "country": "Thailand", "lat": 13.6900, "lon": 100.7501 },
  { "icao": "KUL", "iata": "KUL", "name": "Kuala Lumpur Intl", "city": "Kuala Lumpur", "country": "Malaysia", "lat": 2.7456, "lon": 101.7090 },
  { "icao": "MEX", "iata": "MEX", "name": "Mexico City Intl", "city": "Mexico City", "country": "Mexico", "lat": 19.4361, "lon": -99.0719 },
  { "icao": "BOG", "iata": "BOG", "name": "El Dorado Intl", "city": "Bogotá", "country": "Colombia", "lat": 4.7016, "lon": -74.1469 },
  { "icao": "SCL", "iata": "SCL", "name": "Santiago Intl", "city": "Santiago", "country": "Chile", "lat": -33.3929, "lon": -70.7858 },
  { "icao": "LIM", "iata": "LIM", "name": "Jorge Chávez Intl", "city": "Lima", "country": "Peru", "lat": -12.0219, "lon": -77.1143 }
]
